,Legal Name,Ignore,Website,AddressProvided,City,State,Zip,Country/Area,lat,lon,display
0,Mississippi Organ Recovery Agency Inc,-,https://msora.org/,-,Flowood,Mississippi,39232,United States,32.309286,-90.138681,"Flowood, Rankin County, Mississippi, 39232, United States"
1,Dendreon Pharmaceuticals LLC,-,https://www.dendreon.com/,-,Union City,Georgia,30291,United States,33.587056,-84.54243,"Union City, Fulton County, Georgia, United States"
2,SAFC Carlsbad Inc.,-,https://www.dandb.com/businessdirectory/safccarlsbadinc.-carlsbad-ca-238239.html,-,Carlsbad,California,92009,United States,33.158093,-117.350597,"Carlsbad, San Diego County, California, United States"
3,PLATFORM LLC,-,https://www.ctcompanydir.com/companies/platform-llc/,-,Plainville,Connecticut,6062,United States,41.67114,-72.867243,"Plainville, Hartford County, Connecticut, 06062, United States"
4,"NuTech Spine, Inc.",-,https://nutechspine.com/,-,Birmingham,Alabama,35223,United States,33.520682,-86.802433,"Birmingham, Jefferson County, Alabama, United States"
5,Organogenesis Inc.,-,https://organogenesis.com/,-,Vestavia Hills,Alabama,35216,United States,33.448799,-86.787949,"Vestavia Hills, Jefferson County, Alabama, 35216, United States"
6,UW Health at The American Center,-,https://www.uwhealth.org/locations/,-,Madison,Wisconsin,53718,United States,43.074761,-89.383761,"Madison, Dane County, Wisconsin, United States"
7,Atrium Health Wake Forest Baptist,-,https://www.wakehealth.edu/,-,Winston Salem,North Carolina,27103,United States,36.099813,-80.244052,"Winston-Salem, Forsyth County, North Carolina, United States"
8,"Eurofins Lancaster Laboratories, Inc",-,https://www.eurofinsus.com/biopharma-services/biopharma-testing-services/biopharma-product-testing/us-locations/lancaster-pa/,-,Lancaster,Pennsylvania,17601,United States,40.03813,-76.305669,"Lancaster, Lancaster County, Pennsylvania, United States"
9,Kindbody Silicon Valley,-,https://kindbody.com/,-,Los Altos,California,94022,United States,37.379063,-122.116578,"Los Altos, Santa Clara County, California, United States"
10,Kindbody Princeton,-,https://kindbody.com/location-princeton/,-,Princeton,New Jersey,8542,United States,40.349274,-74.659296,"Princeton, Mercer County, New Jersey, United States"
11,Legacy of Hope,-,https://legacyofhope.org,-,Birmingham,Alabama,35233,United States,33.520682,-86.802433,"Birmingham, Jefferson County, Alabama, United States"
12,LifeLink of Puerto Rico,-,https://lifelinkfoundation.org,-,Guaynabo,Puerto Rico,968,United States,18.358149,-66.111697,"Guaynabo, Puerto Rico, United States"
13,"Promethean LifeSciences, Inc.",-,https://pl-s.com/,-,Pittsburgh,Pennsylvania,15219,United States,40.441694,-79.990086,"Pittsburgh, Allegheny County, Pennsylvania, United States"
14,Immunology and Histocompatibility Lab,-,https://umiamihealth.org/,-,Miami,Florida,33136,United States,25.774173,-80.19362,"Miami, Miami-Dade County, Florida, United States"
15,Cell Applications Inc,-,https://www.cellapplications.com/,-,San Diego,California,92121,United States,32.71742,-117.162773,"San Diego, San Diego County, California, United States"
16,Catalent Maryland Inc,-,https://www.catalent.com,-,Harmans,Maryland,21077,United States,39.15733,-76.696636,"Harmans, Anne Arundel County, Maryland, 21077, United States"
17,"Spark Therapeutics, Inc.",-,https://sparktx.com/,-,Philadelphia,Pennsylvania,19104,United States,39.952724,-75.163526,"Philadelphia, Philadelphia County, Pennsylvania, United States"
18,LifeNet Health,-,https://www.lifenethealth.org/,-,Virginia Beach,Virginia,23453,United States,36.779505,-76.092972,"LifeNet Health, 1864, Concert Drive, Landstown, Virginia Beach, Virginia, 23453, United States"
19,Oregon Health & Science University,-,https://www.ohsu.edu/,-,Portland,Oregon,97239,United States,45.498193,-122.686496,"Oregon Health & Science University, Southwest Hoffman Avenue, Southwest Hills, Portland, Multnomah County, Oregon, 97201, United States"
20,LifeNet Health,-,https://www.lifenethealth.org/,-,Virginia Beach,Virginia,23455,United States,36.779133,-76.094511,"LifeNet Health, Princess Anne Road, Landstown, Virginia Beach, Virginia, 23453, United States"
21,"Vitalife, Inc.",-,http://www.vitalife-inc.com,-,San Juan,Puerto Rico,927,United States,18.465299,-66.116666,"San Juan, Puerto Rico, United States"
22,Innotek Medical Products Inc.,-,http://innotekmedical.com/,-,Oak Brook,Illinois,60523,United States,41.832808,-87.92895,"Oak Brook, DuPage County, Illinois, 60523, United States"
23,LifeNet Health (Sabre Street),-,https://www.lifenethealth.org,-,Virginia Beach,Virginia,23452,United States,36.852984,-75.977418,"Virginia Beach, Virginia, United States"
24,Laboratory Corp. of America,-,https://www.labcorp.com/,-,Raritan,New Jersey,8869,United States,40.567181,-74.634683,"Raritan, Somerset County, New Jersey, 08869, United States"
25,Texas Procurement LLC,-,https://www.texasprocurement.org/,-,River Oaks,Texas,76114,United States,32.777074,-97.394463,"River Oaks, Tarrant County, Texas, 76114, United States"
26,Fellow Health Inc,-,https://fellowhealthpartners.com/,-,San Leandro,California,94577,United States,37.72493,-122.156077,"San Leandro, Alameda County, California, United States"
27,FMCNA Fresno,-,https://fmcna.com/,-,Fresno,California,93711,United States,36.739442,-119.784831,"Fresno, Fresno County, California, United States"
28,Northwell Health Laboratories,-,https://www.northwell.edu/northwell-health-labs,-,Little Neck,New York,11362,United States,40.762046,-73.738187,"Little Neck, Queens County, City of New York, New York, 11362, United States"
29,"Arms, Inc.",-,https://armsmedical.com/,-,Cooper City,Florida,33328,United States,26.057783,-80.269511,"Cooper City, Broward County, Florida, United States"
30,Stryker Puerto Rico Sales LLC,-,https://www.stryker.com/,-,San Juan,Puerto Rico,918,United States,18.465299,-66.116666,"San Juan, Puerto Rico, United States"
31,"Novartis Gene Therapies, Inc.",-,https://www.novartis.com/about/innovative-medicines/novartis-pharmaceuticals/novartis-gene-therapies,-,San Diego,California,92121,United States,32.71742,-117.162773,"San Diego, San Diego County, California, United States"
32,Aziyo Biologics Inc,-,https://www.aziyo.com/,-,Richmond,California,94804,United States,37.935758,-122.347748,"Richmond, Contra Costa County, California, United States"
33,Nutek Bravo LLC,-,https://www.nutekbravo.com/,-,Hayward,California,94545,United States,37.668821,-122.080796,"Hayward, Alameda County, California, United States"
34,"LeMaitre Vascular, Inc.",-,https://www.lemaitre.com/,-,Burlington,Massachusetts,1803,United States,42.504817,-71.195611,"Burlington, Middlesex County, Massachusetts, United States"
35,"TelaGen, LLC",-,https://www.telagenllc.com/,-,Tallahassee,Florida,32308,United States,30.438083,-84.280933,"Tallahassee, Leon County, Florida, United States"
36,Viacord LLC,-,https://www.viacord.com/,-,Hebron,Kentucky,41048,United States,39.065813,-84.702758,"Hebron, Boone County, Kentucky, 41048, United States"
37,UR Medicine Labs Central Laboratory,-,https://www.urmc.rochester.edu/pathology-labs/central.aspx,-,West Henrietta,New York,14586,United States,43.040063,-77.661669,"West Henrietta, Town of Henrietta, Monroe County, New York, 14586, United States"
38,Stembanc Inc,-,https://stembanc.com/,-,Chardon,Ohio,44024,United States,41.582494,-81.203407,"Chardon, Geauga County, Ohio, 44024, United States"
39,Kindbody Bryant Park,-,https://kindbody.com/new-york-location/,-,New York,New York,10016,United States,36.102279,-115.176022,"New York New York, Paradise, Clark County, Nevada, 89158, United States"
40,Regenerative Biologics Inc,-,https://regenerative-biologics.com/,-,Brooklyn,New York,11237,United States,40.652601,-73.949721,"Brooklyn, Kings County, City of New York, New York, United States"
41,Hiossen Inc.,-,https://hiossen.com/,-,Norwood,New Jersey,7648,United States,40.998153,-73.961804,"Norwood, Bergen County, New Jersey, 07648, United States"
42,The Healing Bank,-,https://thehealingbank.com/,-,Augusta,Georgia,30909,United States,33.470971,-81.974843,"Augusta, Richmond County, Georgia, United States"
43,"NuVasive, Inc",-,https://www.nuvasive.com/,-,Memphis,Tennessee,38118,United States,35.133502,-89.966876,"Memphis, Shelby County, West Tennessee, Tennessee, United States"
44,"Regenerative Processing Plant, LLC",-,https://www.regenerativeplant.org/,-,Palm Harbor,Florida,34684,United States,28.085681,-82.756907,"Palm Harbor, Tarpon Springs, Pinellas County, Florida, United States"
45,Seattle Cancer Care Alliance,-,https://www.seattlecca.org/,-,Seattle,Washington,98109,United States,47.626439,-122.329759,"Seattle Cancer Care Alliance, 825, Eastlake Avenue East, South Lake Union, Capitol Hill, Seattle, King County, Washington, 98109, United States"
46,Versiti Michigan Inc,-,https://www.versiti.org/,-,Grand Rapids,Michigan,49503,United States,42.96324,-85.667864,"Grand Rapids, Kent County, Michigan, United States"
47,"Versiti Wisconsin, Inc.",-,https://www.versiti.org/,-,Milwaukee,Wisconsin,53233,United States,43.034993,-87.922497,"Milwaukee, Milwaukee County, Wisconsin, United States"
48,"Zimmer US, Inc",-,https://zimmerusa.com/,-,Southaven,Mississippi,38671,United States,34.987382,-90.003486,"Southaven, DeSoto County, Mississippi, United States"
49,Bio Cell And Tissue Technologies,-,http://biocett.com/,-,Salt Lake City,Utah,84108,United States,40.75962,-111.886798,"Salt Lake City, Salt Lake County, Utah, United States"
50,Nvision Biomedical Technologies Inc,-,https://nvisionbiomed.com/,-,San Antonio,Texas,78249,United States,29.4246,-98.495141,"San Antonio, Bexar County, Texas, United States"
51,The Cleveland Clinic Foundation,-,https://my.clevelandclinic.org/giving/ways-to-give/foundation-giving,-,Cleveland,Ohio,44195,United States,41.499656,-81.693681,"Cleveland, Cuyahoga County, Ohio, United States"
52,Children's Healthcare of Atlanta,-,https://www.choa.org/,-,Atlanta,Georgia,30322,United States,33.748992,-84.390264,"Atlanta, Fulton County, Georgia, United States"
53,Catalent Maryland,-,https://www.catalent.com,-,Baltimore,Maryland,21201,United States,39.290882,-76.610759,"Baltimore, Maryland, United States"
54,"In2Bones USA, LLC",-,https://i2b-usa.com/,-,Memphis,Tennessee,38119,United States,35.133502,-89.966876,"Memphis, Shelby County, West Tennessee, Tennessee, United States"
55,CRA Biotech LLC.,-,https://crabiotech.com/,-,Saint Simons Island,Georgia,31522,United States,31.15051,-81.36954,"Saint Simons Island, Saint Simons, Glynn County, Georgia, 31522, United States"
56,Eversight,-,https://www.eversightvision.org/,-,Ann Arbor,Michigan,48108,United States,42.216873,-83.730665,"Eversight, 4889, Venture Drive, Runway Plaza, Ann Arbor, Washtenaw County, Michigan, 48108, United States"
57,CARE for the Bay Area,-,https://care4ba.com/care-team,-,Los Gatos,California,95032,United States,37.226611,-121.97468,"Los Gatos, Santa Clara County, California, United States"
58,Northwestern Medicine,-,https://www.nm.org/locations/northwestern-memorial-hospital,-,Chicago,Illinois,60611,United States,41.89624,-87.619568,"Northwestern University Feinberg School of Medicine, East Superior Street, Streeterville, Near North Side, Chicago, Cook County, Illinois, 60611, United States"
59,"LifeCell Corporation, A Wholly Owned Subsidiary of Allergan PLC",-,https://www.aatb.org/lifecell-corporation-allergan-affiliate,-,Branchburg,New Jersey,8876,United States,40.568824,-74.700274,"Branchburg Township, Somerset County, New Jersey, United States"
60,LifeCell Corporation,-,https://www.aatb.org/lifecell-corporation-allergan-affiliate,-,Branchburg,New Jersey,8876,United States,40.568824,-74.700274,"Branchburg Township, Somerset County, New Jersey, United States"
61,ThedaCare Laboratories,-,https://thedacare.org,-,Appleton,Wisconsin,54911,United States,44.261397,-88.406974,"Appleton, Outagamie County, Wisconsin, United States"
62,Altus Partners LLC dba Altus Spine,-,https://www.altuspartners.com/,-,West Chester,Pennsylvania,19380,United States,39.964187,-75.629209,"CHOP Primary Care, West Chester, 770, Miles Road, Brookworth Plaza, East Bradford Township, Chester County, Pennsylvania, 19380, United States"
63,BioGenetics Corporation,-,https://www.biogenetic.us/,-,Mountainside,New Jersey,7092,United States,40.672324,-74.357372,"Mountainside, Union County, New Jersey, 07092, United States"
64,"Tech Medical Group, Inc.",-,https://techmedpr.com/en/,-,Guaynabo,Puerto Rico,968,United States,18.358149,-66.111697,"Guaynabo, Puerto Rico, United States"
65,"Scendia Biologics, LLC",-,https://www.linkedin.com/company/scendiabio,-,Orlando,Florida,32806,United States,28.542111,-81.37903,"Orlando, Orange County, Florida, United States"
66,Apex Biologics,-,https://apexbiologix.com/,-,Alpine,Utah,84004,United States,40.453253,-111.77796,"Alpine, Utah County, Utah, 84004, United States"
67,Osteobiologic Solutions Inc,-,http://osteobiologicsolutions.com/,-,Magnolia,Texas,77354,United States,30.209457,-95.75081,"Magnolia, Montgomery County, Texas, United States"
68,University of Texas MD Anderson Cancer Center,-,https://www.mdanderson.org/,-,Houston,Texas,77054,United States,29.70767,-95.39783,"University of Texas MD Anderson Cancer Center, 1515, Holcombe Boulevard, Texas Medical Center, Houston, Harris County, Texas, 77030, United States"
69,RegenTX Partners LLC,-,https://www.linkedin.com/company/rtxpartnersllc,-,San Antonio,Texas,78249,United States,29.4246,-98.495141,"San Antonio, Bexar County, Texas, United States"
70,"AssureImmune, LLC",-,http://www.assureimmune.com/,-,Miami,Florida,33136,United States,25.774173,-80.19362,"Miami, Miami-Dade County, Florida, United States"
71,"Duma Co Sciences, LLC",-,http://www.dumacosciences.com/,-,Dallas,Texas,75287,United States,32.776272,-96.796856,"Dallas, Dallas County, Texas, United States"
72,"OsteoLife Biomedical, LLC",-,http://www.osteolifebiomedical.com/,-,Jupiter,Florida,33458,United States,26.934225,-80.094209,"Jupiter, Palm Beach County, Florida, United States"
73,Laboratory Corporation of America ViroMed Laboratories,-,https://www.labcorp.com/node/92,-,Burlington,North Carolina,27215,United States,36.095692,-79.437799,"Burlington, Alamance County, North Carolina, United States"
74,Bio Tech Med Corp.,-,http://biotechmedical.com.my/,-,San German,Puerto Rico,683,United States,18.080897,-67.040864,"San Germán, Puerto Rico, United States"
75,"Katena Products, Inc.",-,https://www.katena.com/,-,Randolph,New Jersey,7869,United States,40.84499,-74.573079,"Randolph Trails, Youngstown, Randolph Township, Morris County, New Jersey, 07869, United States"
76,Laboratory Corporation Of America,-,https://www.labcorp.com/node/88,-,Burlington,North Carolina,27215,United States,36.095692,-79.437799,"Burlington, Alamance County, North Carolina, United States"
77,"Extremity Medical, LLC",-,https://www.extremitymedical.com/,-,Parsippany,New Jersey,7054,United States,40.857877,-74.425987,"Parsippany, Parsippany-Troy Hills, Morris County, New Jersey, 07054, United States"
78,Eversight,-,https://www.eversightvision.org/,-,Cleveland,Ohio,44103,United States,41.499656,-81.693681,"Cleveland, Cuyahoga County, Ohio, United States"
79,Franciscan  Health  Indianapolis,-,https://www.franciscanhealth.org/find-a-location/franciscan-health-indianapolis-218334,-,Indianapolis,Indiana,46237,United States,39.648395,-86.078782,"Franciscan Health Indianapolis, 8111, South Emerson Avenue, Indianapolis, Marion County, Indiana, 46237, United States"
80,"Innovasis, Inc",-,https://www.innovasis.com/,-,Salt Lake City,Utah,84107,United States,40.75962,-111.886798,"Salt Lake City, Salt Lake County, Utah, United States"
81,Dendreon Corporation,-,https://www.dendreon.com/,-,Seattle,Washington,98102,United States,47.603832,-122.330062,"Seattle, King County, Washington, United States"
82,Laboratory Corporation of America,-,https://www.labcorp.com/node/89,-,Tampa,Florida,33634,United States,27.94776,-82.458444,"Tampa, Hillsborough County, Florida, United States"
83,"Crown Peak Industries, LLC",-,https://www.linkedin.com/company/crownpeakindustries,-,Scottsdale,Arizona,85258,United States,33.494219,-111.926018,"Scottsdale, Maricopa County, Arizona, United States"
84,Cavalier Biotech LLC,-,https://www.bizapedia.com/va/cavalier-biotech-llc.html,-,Chesapeake,Virginia,23320,United States,36.718371,-76.24668,"Chesapeake, Virginia, United States"
85,Avant Solutions,-,https://www.avantsolutions.org/,-,San Antonio,Texas,78258,United States,29.4246,-98.495141,"San Antonio, Bexar County, Texas, United States"
86,"BioLab Sciences, Inc.",-,https://www.biolabsciences.net/,-,Scottsdale,Arizona,85260,United States,33.494219,-111.926018,"Scottsdale, Maricopa County, Arizona, United States"
87,Camber Spine Technologies,-,https://www.cambermedtech.com/all-products,-,King Of Prussia,Pennsylvania,19406,United States,40.094762,-75.385133,"King of Prussia, Upper Merion Township, Montgomery County, Pennsylvania, 19406, United States"
88,Cton Laboratories,-,https://www.ctonlab.com/,-,Torrance,California,90503,United States,33.835849,-118.340629,"Torrance, Los Angeles County, California, United States"
89,"Captiva Spine, Inc",-,https://www.captivaspine.com/,-,Jupiter,Florida,33477,United States,26.934225,-80.094209,"Jupiter, Palm Beach County, Florida, United States"
90,CITAGENIX INC,-,https://www.citagenix.com/,-,Milford,Michigan,48381,United States,42.59178,-83.60007,"Milford, Oakland County, Michigan, United States"
91,ClinImmune Labs,-,https://www.clinimmune.com/,-,Aurora,Colorado,80045,United States,39.740511,-104.830995,"Aurora, Adams County, Colorado, United States"
92,"Coloplast Manufacturing US, LLC",-,https://www.coloplast.us,-,Minneapolis,Minnesota,55411,United States,44.9773,-93.265469,"Minneapolis, Hennepin County, Minnesota, United States"
93,Hans Biomed USA Inc.,-,https://www.linkedin.com/company/hansbiomedusa,-,Englewood Cliffs,New Jersey,7632,United States,40.885377,-73.95236,"Englewood Cliffs, Bergen County, New Jersey, 07632, United States"
94,Scripps Medical Laboratory,-,https://www.scripps.org/services/laboratory-services,-,San Diego,California,92121,United States,32.71742,-117.162773,"San Diego, San Diego County, California, United States"
95,"SEED Biotech, Inc.",-,https://www.seedbiotech.com/,-,Dallas,Texas,75226,United States,32.776272,-96.796856,"Dallas, Dallas County, Texas, United States"
96,Skye Biologics Holdings LLC,-,https://www.skyebiologics.com/,-,El Segundo,California,90245,United States,33.917028,-118.415634,"El Segundo, Los Angeles County, California, 90245, United States"
97,"SpineCraft, LLC.",-,https://www.spinecraft.com/,-,Westmont,Illinois,60559,United States,41.795052,-87.975196,"Westmont, DuPage County, Illinois, 60559, United States"
98,"StemCyte, Inc",-,https://www.stemcyte.com/,-,Baldwin Park,California,91706,United States,34.085474,-117.961176,"Baldwin Park, Los Angeles County, California, 91706, United States"
99,Stryker Spine,-,https://www.strykerneurotechnology.com/,-,Allendale,New Jersey,7401,United States,41.041486,-74.129032,"Allendale, Bergen County, New Jersey, 07401, United States"
100,Randolph Health,-,https://www.randolphhealth.org/,-,Asheboro,North Carolina,27203,United States,35.711628,-79.813483,"Randolph Health, White Oak Street, Asheboro, Randolph County, North Carolina, 27203, United States"
101,"Surgentec, LLC",-,https://www.surgentec.com/,-,Boca Raton,Florida,33487,United States,26.358688,-80.083098,"Boca Raton, Palm Beach County, Florida, United States"
102,"telaGen, LLC",-,https://www.telagenllc.com/,-,Metairie,Louisiana,70002,United States,29.989993,-90.150543,"Metairie, Jefferson Parish, Louisiana, United States"
103,Tritin Medical Distribution LLC,-,https://www.tritinmed.com/,-,Farmers Branch,Texas,75244,United States,32.926514,-96.896115,"Farmers Branch, Dallas County, Texas, 75234, United States"
104,Veterans Affairs Medical Ctr,-,https://www.va.gov/health/,-,Lexington,Kentucky,40502,United States,38.046407,-84.497039,"Lexington, Fayette County, Kentucky, United States"
105,"SciSafe, Inc.",-,https://www.scisafe.com/,-,Cranbury,New Jersey,8512,United States,40.309939,-74.517722,"Cranbury, Cranbury Township, Middlesex County, New Jersey, United States"
106,Precise Bioscience LLC,-,https://www.precisebioscience.com/,-,Willowbrook,Illinois,60527,United States,41.769753,-87.935893,"Willowbrook, DuPage County, Illinois, United States"
107,"Hitachi Chemical Advanced Therapeutics Solutions, LLC",-,https://www.linkedin.com/company/pct-cell-therapy-services,-,Allendale,New Jersey,7401,United States,41.041486,-74.129032,"Allendale, Bergen County, New Jersey, 07401, United States"
108,Vista Biologicals Corporation,-,https://www.linkedin.com/company/vista-biologicals-corporation,-,Carlsbad,California,92011,United States,33.158093,-117.350597,"Carlsbad, San Diego County, California, United States"
109,LiveOnNY,-,https://www.liveonny.org/,-,Long Island City,New York,11103,United States,40.741509,-73.956975,"Long Island City, Borden Avenue, Hunters Point, Queens, City of New York, New York, 11109, United States"
110,Mayo Clinic Rochester - Human Tissue,-,https://www.mayoclinic.org/patient-visitor-guide/minnesota,-,Rochester,Minnesota,55905,United States,44.023439,-92.463018,"Rochester, Olmsted County, Minnesota, United States"
111,"Berkeley Advanced Biomaterials, LLC",-,https://www.ostetic.com/,-,Berkeley,California,94710,United States,37.870839,-122.272863,"Berkeley, Alameda County, California, United States"
112,Oxford Biomedica (UK) Limited,-,https://www.oxb.com/,-,Oxford,-,-,United Kingdom,51.752013,-1.25785,"Oxford, Oxfordshire, England, United Kingdom"
113,"PhysioRX, LLC",-,https://www.physiorx.com/,-,Ocoee,Florida,34761,United States,28.569519,-81.544117,"Ocoee, Orange County, Florida, 34761, United States"
114,"Arthomed, LLC.",-,https://www.arthomed.com/,-,Delray Beach,Florida,33444,United States,26.461462,-80.07282,"Delray Beach, Palm Beach County, Florida, United States"
115,REI Division  Brooke Army Med Cntr,-,https://bamc.tricare.mil/,-,Jbsa Ft Sam Houston,Texas,78234,United States,39.78373,-100.445882,United States
116,"Celularity, Inc. dba LifebankUSA",-,https://celularity.com/company/lifebank/,-,Cedar Knolls,New Jersey,7927,United States,40.822044,-74.448765,"Cedar Knolls, Hanover Township, Morris County, New Jersey, 07927, United States"
117,UPMC Hematopoietic Stem Cell Laboratory,-,https://hillmanresearch.upmc.edu/research/facilities/hematopoietic-stem-cell/,-,Pittsburgh,Pennsylvania,15213,United States,40.441694,-79.990086,"Pittsburgh, Allegheny County, Pennsylvania, United States"
118,"Amnio Technology, LLC",-,https://amniotechnology.com/,-,Phoenix,Arizona,85027,United States,33.448437,-112.074141,"Phoenix, Maricopa County, Arizona, United States"
119,Joint Restoration Foundation,-,https://jrfortho.org/about,-,San Leandro,California,94577,United States,37.72493,-122.156077,"San Leandro, Alameda County, California, United States"
120,Joint Restoration Foundation,-,https://jrfortho.org/about,-,Centennial,Colorado,80112,United States,39.579155,-104.876923,"Centennial, Arapahoe County, Colorado, United States"
121,LifeCenter Northwest,-,https://lcnw.org/,-,Edmonds,Washington,98026,United States,47.810574,-122.377495,"Edmonds, Snohomish County, Washington, United States"
122,"Alphacord, LLC",-,https://www.alphacord.com/,-,Scottsdale,Arizona,85260,United States,33.494219,-111.926018,"Scottsdale, Maricopa County, Arizona, United States"
123,Tri-State Biologics Inc.,-,http://www.tristatebiologics.com/,-,Secaucus,New Jersey,7094,United States,40.789929,-74.056674,"Secaucus, Hudson County, New Jersey, United States"
124,GenCure,-,http://gencurepharma.com/,-,Weslaco,Texas,78596,United States,26.15943,-97.990736,"Weslaco, Hidalgo County, Texas, 78596, United States"
125,Hans Biomed Corporation,-,http://www.hansbiomed.com/en/,-,Yusung,-,-,Korea (the Republic of),51.503139,-0.289239,"Embassy of the Democratic People's Republic of Korea, 73, Gunnersbury Avenue, Acton, London Borough of Ealing, London, Greater London, England, W5 4LP, United Kingdom"
126,"Surgilogix, LLC",-,http://www.surgilogix.com/,-,San Antonio,Texas,78231,United States,29.4246,-98.495141,"San Antonio, Bexar County, Texas, United States"
127,"Allotex, Inc",-,https://allotex.com/,-,Boston,Massachusetts,2210,United States,42.355433,-71.060511,"Boston, Suffolk County, Massachusetts, United States"
128,Blythe Enterprises Inc,-,https://acellfx.com/,-,Hoschton,Georgia,30548,United States,34.096496,-83.761284,"Hoschton, Jackson County, Georgia, United States"
129,AlloSource,-,https://allosource.org/,-,Houston,Texas,77054,United States,29.758938,-95.367697,"Houston, Harris County, Texas, United States"
130,AlloSource,-,https://allosource.org/,-,Maryland Heights,Missouri,63043,United States,38.715051,-90.435999,"Maryland Heights, Saint Louis County, Missouri, United States"
131,AlloSource,-,https://allosource.org/,-,Tracy,California,95304,United States,37.738551,-121.42014,"Tracy, San Joaquin County, California, United States"
132,AlloSource Inc,-,https://allosource.org/,-,Cincinnati,Ohio,45202,United States,39.101454,-84.51246,"Cincinnati, Hamilton County, Ohio, United States"
133,"AlloSource, Inc.",-,https://allosource.org/,-,Centennial,Colorado,80111,United States,39.579155,-104.876923,"Centennial, Arapahoe County, Colorado, United States"
134,West Coast Spine and Ortho,-,https://westcoastspine.com/,-,Santa Fe Springs,California,90670,United States,33.948079,-118.06915,"Santa Fe Springs, Los Angeles County, California, 90670, United States"
135,Stanford Health Care,-,https://stanfordhealthcare.org/,-,Stanford,California,94305,United States,37.426541,-122.170293,"Stanford, Palo Alto, Santa Clara County, California, United States"
136,"Sterigenics US, LLC",-,https://sterigenics.com/,-,Haw River,North Carolina,27258,United States,36.091526,-79.364186,"Haw River, Alamance County, North Carolina, United States"
137,Kuehne & Nagel Inc,-,https://us.kuehne-nagel.com/-/texas-offices,-,Lewisville,Texas,75057,United States,33.046233,-96.994174,"Lewisville, Denton County, Texas, United States"
138,Austin Laboratory New Health LLC,-,https://npidb.org/organizations/laboratories/clinical-medical-laboratory_291u00000x/1114246030.aspx,-,Austin,Texas,78758,United States,30.271129,-97.7437,"Austin, Travis County, Texas, United States"
139,Absorption Systems (Analytical Services),-,https://www.absorption.com/,-,Exton,Pennsylvania,19341,United States,40.029859,-75.628978,"Exton, West Whiteland Township, Chester County, Pennsylvania, 19341, United States"
140,"Seoul Radiology Service Company, Ltd.",-,https://sentrybps.com/,-,Chungcheongbuk-Do,-,-,Korea (the Republic of),51.503139,-0.289239,"Embassy of the Democratic People's Republic of Korea, 73, Gunnersbury Avenue, Acton, London Borough of Ealing, London, Greater London, England, W5 4LP, United Kingdom"
141,Wake Forest University School of Medicine,-,https://school.wakehealth.edu/,-,Winston Salem,North Carolina,27157,United States,36.099813,-80.244052,"Winston-Salem, Forsyth County, North Carolina, United States"
142,RX Medical,-,https://rxmedicalokc.com/,-,Oklahoma City,Oklahoma,73114,United States,35.472989,-97.517054,"Oklahoma City, Oklahoma County, Oklahoma, 73103, United States"
143,"Parametrics Medical, LLC",-,https://parametricsmedical.com/,-,Leander,Texas,78641,United States,30.560309,-97.855366,"Leander, Williamson County, Texas, 78641, United States"
144,"Regenerative Biologics, Inc.",-,https://regenerative-biologics.com/,-,Palm City,Florida,34990,United States,27.171392,-80.284222,"Palm City, Martin County, Florida, 34990, United States"
145,"Regenerative Biologics, Inc.",-,https://regenerative-biologics.com/,-,Gainesville,Florida,32653,United States,29.651968,-82.324985,"Gainesville, Alachua County, Florida, United States"
146,"Regenerative Biologics, Inc.",-,https://regenerative-biologics.com/,-,Pensacola,Florida,32504,United States,30.421309,-87.216915,"Pensacola, Escambia County, Florida, United States"
147,Osiris Therapeutics Inc,-,osiris.com,-,Columbia,Maryland,21046,United States,39.193843,-76.864609,"Columbia, Howard County, Maryland, United States"
148,"Zentech, Inc.",-,https://www.zentech-usa.com/,-,Clearwater,Florida,33756,United States,27.965853,-82.800103,"Clearwater, Pinellas County, Florida, United States"
149,WuXi AppTec Inc.,-,https://www.wuxiapptec.com/about/,-,Marietta,Georgia,30066,United States,33.952847,-84.549615,"Marietta, Cobb County, Georgia, United States"
150,Vigilant Bioservices LLC,-,https://www.vigilantbioservices.com/,-,Baltimore,Maryland,21201,United States,39.290882,-76.610759,"Baltimore, Maryland, United States"
151,"telaGen, LLC",-,https://www.telagenllc.com/,-,Montgomery,Alabama,36117,United States,32.366966,-86.300648,"Montgomery, Montgomery County, Alabama, United States"
152,"telaGen, LLC",-,https://www.telagenllc.com/,-,Dothan,Alabama,36303,United States,31.223743,-85.393391,"Dothan, Houston County, Alabama, United States"
153,"AGORA Health Solutions, LLC",-,https://www.flbusinessgo.com/companies/L15000213399/,-,Boca Raton,Florida,33487,United States,26.358688,-80.083098,"Boca Raton, Palm Beach County, Florida, United States"
154,Kimera Labs Inc,-,https://kimeralabs.com/,-,Miramar,Florida,33025,United States,25.987314,-80.232271,"Miramar, Broward County, Florida, United States"
155,LifeCenter Northwest,-,https://lcnw.org/,-,Bellevue,Washington,98006,United States,47.614422,-122.192337,"Bellevue, King County, Washington, United States"
156,Genetech Inc,-,https://www.gene.com/,-,San Diego,California,92109,United States,32.71742,-117.162773,"San Diego, San Diego County, California, United States"
157,SOLCO BIOMEDICAL CORPORATION,-,https://www.solcohealthcare.com/,-,Plano,Texas,75093,United States,33.013676,-96.69251,"Plano, Collin County, Texas, United States"
158,University of Utah Cell Therapy and Regnerative Medicine,-,https://medicine.utah.edu/internal-medicine/cell,-,Salt Lake City,Utah,84108,United States,40.75962,-111.886798,"Salt Lake City, Salt Lake County, Utah, United States"
159,"Medtech Southeast, Inc.",-,https://medtech-southeast-inc.business.site/,-,Tifton,Georgia,31794,United States,31.454972,-83.510828,"Tifton, Tift County, Georgia, United States"
160,INCELL Corporation LLC,-,https://www.incell.com/,-,San Antonio,Texas,78249,United States,29.4246,-98.495141,"San Antonio, Bexar County, Texas, United States"
161,Harbinger Medical Group dba Tides Medical,-,https://www.aatb.org/harbinger-medical-group-llc-dba-tides-medical,-,Lafayette,Louisiana,70508,United States,30.204326,-92.029881,"Lafayette, Lafayette Parish, Louisiana, United States"
162,"Advanced NuMed Technologies, Ltd.",-,https://www.aatb.org/advanced-numed-technologies-ltd,-,Tulsa,Oklahoma,74137,United States,36.13334,-95.922499,"Tulsa, Tulsa County, Oklahoma, United States"
163,"telaGen, LLC",-,https://www.telagenllc.com/,-,Mobile,Alabama,36609,United States,30.686734,-88.084893,"Mobile, Mobile County, Alabama, United States"
164,Active Medical,-,https://www.activemedicalusa.com/,-,Sandy,Utah,84070,United States,40.571045,-111.895381,"Sandy, Salt Lake County, Utah, United States"
165,Advanced Biologics LLC,-,https://www.advancedbiologics.com/,-,Carlsbad,California,92008,United States,33.158093,-117.350597,"Carlsbad, San Diego County, California, United States"
166,"Banco de Ojos del Leonismo Puertorrique?o, Inc.",-,https://fundacionbancodeojospr.org/,-,San Juan,Puerto Rico,921,United States,18.465299,-66.116666,"San Juan, Puerto Rico, United States"
167,Genesis Biologics Inc,-,https://genesisbiologics.com/,-,Irvine,California,92606,United States,33.685697,-117.825982,"Irvine, Orange County, California, United States"
168,University of South Florida Morsani College of Medicine,-,https://health.usf.edu/medicine/,-,Tampa,Florida,33606,United States,27.94776,-82.458444,"Tampa, Hillsborough County, Florida, United States"
169,Eversight Illinois (Chicago),-,https://www.eversightvision.org/,-,Chicago,Illinois,60661,United States,41.875562,-87.624421,"Chicago, Cook County, Illinois, United States"
170,"Eversight Illinois, Bloomington",-,https://www.eversightvision.org/,-,Bloomington,Illinois,61704,United States,40.479783,-88.993915,"Bloomington, McLean County, Illinois, United States"
171,Amgen Technology (Ireland) Unlimited Company,-,https://www.amgen.co.uk,-,Dun Laoghaire,-,-,Ireland,53.292279,-6.136008,"Dún Laoghaire, Dún Laoghaire-Rathdown, County Dublin, Leinster, A96 T860, Éire / Ireland"
172,"StemCure,  Inc.",-,https://stemcure.com/,-,Brooklyn,New York,11232,United States,40.652601,-73.949721,"Brooklyn, Kings County, City of New York, New York, United States"
173,University of Alabama at Birmingham Gamete Biology Lab,-,https://www.uab.edu/cas/biology/,-,Birmingham,Alabama,35233,United States,33.520682,-86.802433,"Birmingham, Jefferson County, Alabama, United States"
174,Aesculap Inc,-,https://www.aesculapusa.com/en.html,-,Hazelwood,Missouri,63042,United States,38.776145,-90.371591,"Hazelwood, Saint Louis County, Missouri, 63042, United States"
175,Texas Tech University Health Science Center,-,https://www.ttuhsc.edu/,-,Lubbock,Texas,79430,United States,33.563521,-101.879336,"Lubbock, Lubbock County, Texas, United States"
176,"IsoTis OrthoBiologics, Inc.",-,https://www.seaspine.com/orthobiologics/isotis/,-,Irvine,California,92618,United States,33.685697,-117.825982,"Irvine, Orange County, California, United States"
177,National Jewish Health,-,https://www.nationaljewish.org/home,-,Denver,Colorado,80206,United States,39.739206,-104.942372,"National Jewish Health, 1400, Jackson Street, Denver, Colorado, 80206, United States"
178,Mercy Health St. Mary's,-,https://www.mercyhealth.com/location/trinity-health-saint-marys-grand-rapids,-,Grand Rapids,Michigan,49503,United States,42.958373,-85.662803,"Mercy Health Saint Mary's, 200, Jefferson Avenue Southeast, Heritage Hill Historic District, Grand Rapids, Kent County, Michigan, 49503, United States"
179,MD Tox Laboratory,-,https://www.labprospects.com/CLIA/05D2040304,-,Irvine,California,92614,United States,33.685697,-117.825982,"Irvine, Orange County, California, United States"
180,LeMaitre Vascular Inc,-,https://www.lemaitre.com/,-,Fox River Grove,Illinois,60021,United States,42.200857,-88.214526,"Fox River Grove, McHenry County, Illinois, 60021, United States"
181,University Of Texas MD Anderson Cancer Center,-,https://www.mdanderson.org/,-,Houston,Texas,77030,United States,29.70767,-95.39783,"University of Texas MD Anderson Cancer Center, 1515, Holcombe Boulevard, Texas Medical Center, Houston, Harris County, Texas, 77030, United States"
182,Wake Forest Institute for Regenerative Medicine,-,https://school.wakehealth.edu/research/institutes-and-centers/wake-forest-institute-for-regenerative-medicine,-,Winston Salem,North Carolina,27101,United States,36.099813,-80.244052,"Winston-Salem, Forsyth County, North Carolina, United States"
183,"Six Medical Solutions, LLC",-,https://www.linkedin.com/company/six-medical-solutions,-,Scottsdale,Arizona,85260,United States,33.494219,-111.926018,"Scottsdale, Maricopa County, Arizona, United States"
184,"Regenerative Biologics, Inc.",-,https://regenerative-biologics.com/,-,Margate,Florida,33063,United States,26.244526,-80.206436,"Margate, Broward County, Florida, 33063, United States"
185,"Omnia Biologix, LLC",-,https://omniamedical.com/,-,Morgantown,West Virginia,26508,United States,39.629681,-79.955944,"Morgantown, Monongalia County, West Virginia, United States"
186,"Versari Global Health Partners, LLC",-,https://opencorporates.com/companies/us_mo/LC001523307,-,Saint Louis,Missouri,63126,United States,38.631966,-90.242876,"Saint Louis, Missouri, United States"
187,"Osteogenics Biomedical, Inc.",-,https://osteogenics.com/,-,Lubbock,Texas,79424,United States,33.563521,-101.879336,"Lubbock, Lubbock County, Texas, United States"
188,"Parametrics Medical, LLC",-,https://parametricsmedical.com/,-,San Antonio,Texas,78258,United States,29.4246,-98.495141,"San Antonio, Bexar County, Texas, United States"
189,"Integrity Biologics, LLC",-,https://www.integritybio.com,-,Bixby,Oklahoma,74008,United States,35.942043,-95.883324,"Bixby, Tulsa County, Oklahoma, 74008, United States"
190,"Plakous Therapeutics, Inc",-,https://www.plakoustherapeutics.com/,-,Winston Salem,North Carolina,27103,United States,36.099813,-80.244052,"Winston-Salem, Forsyth County, North Carolina, United States"
191,"Pinnacle, Inc",-,https://pinnacle-mi.com/,-,Troy,Michigan,48083,United States,42.605589,-83.14993,"Troy, Oakland County, Michigan, United States"
192,Oregon Health & Science University,-,https://www.ohsu.edu/school-of-medicine,-,Portland,Oregon,97239,United States,45.498193,-122.686496,"Oregon Health & Science University, Southwest Hoffman Avenue, Southwest Hills, Portland, Multnomah County, Oregon, 97201, United States"
193,"OCO Biomedical, Inc.",-,https://www.ocobiomedical.com/,-,Albuquerque,New Mexico,87113,United States,35.084103,-106.650985,"Albuquerque, Bernalillo County, New Mexico, United States"
194,Regenerative Biologics,-,https://regenerative-biologics.com/,-,Birmingham,Alabama,35242,United States,33.520682,-86.802433,"Birmingham, Jefferson County, Alabama, United States"
195,"Vivex Biologics, Inc.",-,https://vivex.com/,-,Miami,Florida,33167,United States,25.774173,-80.19362,"Miami, Miami-Dade County, Florida, United States"
196,"Regenerative Biologics, Inc.",-,https://regenerative-biologics.com/,-,Bradenton,Florida,34205,United States,27.498928,-82.574819,"Bradenton, Manatee County, Florida, United States"
197,"Rapp Medical Systems, Inc.",-,https://www.linkedin.com/company/rapp-medical-systems-inc./,-,Indianapolis,Indiana,46260,United States,39.768333,-86.15835,"Indianapolis, Marion County, Indiana, United States"
198,Bioeden Inc,-,https://www.bioeden.com/us/,-,Austin,Texas,78748,United States,30.271129,-97.7437,"Austin, Travis County, Texas, United States"
199,CTL Medical Corporation,-,https://www.ctlamedica.com/,-,Addison,Texas,75001,United States,32.960478,-96.830067,"Addison, Dallas County, Texas, 75001, United States"
200,Aurora Spine Inc,-,https://www.aurora-spine.com/,-,Carlsbad,California,92008,United States,33.158093,-117.350597,"Carlsbad, San Diego County, California, United States"
201,AlloSource Inc.,-,https://allosource.org/,-,San Diego,California,92108,United States,32.71742,-117.162773,"San Diego, San Diego County, California, United States"
202,"Cook General BioTechnology, LLC",-,https://www.cookbiotech.com/,-,Indianapolis,Indiana,46202,United States,39.768333,-86.15835,"Indianapolis, Marion County, Indiana, United States"
203,Children's Healthcare of Atlanta at Scottish Rite,-,https://www.choa.org/locations/scottish-rite-hospital,-,Atlanta,Georgia,30342,United States,33.748992,-84.390264,"Atlanta, Fulton County, Georgia, United States"
204,"Saura Medical, LLC",-,http://sauramed.com/,-,Las Vegas,Nevada,89120,United States,36.167256,-115.148516,"Las Vegas, Clark County, Nevada, United States"
205,"SpineFrontier, Inc.",-,http://spinefrontier.com/,-,Malden,Massachusetts,2148,United States,42.425096,-71.066163,"Malden, Middlesex County, Massachusetts, 02148, United States"
206,"Core BioScience, LLC",-,https://www.bizapedia.com/ca/core-bioscience-llc.html,-,Redlands,California,92373,United States,34.055033,-117.182744,"Redlands, San Bernardino County, California, United States"
207,"Eurofins Viracor, Inc.",-,https://www.eurofins-viracor.com/,-,Lees Summit,Missouri,64086,United States,38.885684,-94.24562,"East Lone Jack Lees Summit Road, Cockrell, Jackson County, Missouri, 64086, United States"
208,"C.G. Laboratories, Inc.",-,https://cg-labs.com/,-,Granbury,Texas,76048,United States,32.440779,-97.792609,"Granbury, Hood County, Texas, 76048, United States"
209,Banco Vida Corp.,-,https://www.bancovida.com/,-,San Juan,Puerto Rico,918,United States,18.465299,-66.116666,"San Juan, Puerto Rico, United States"
210,Zimmer Biomet Spine Inc.,-,https://www.zimmerbiomet.com/en,-,Westminster,Colorado,80021,United States,39.836653,-105.037205,"Westminster, Adams County, Colorado, United States"
211,SpinalGraft Technologies LLC,-,https://www.dnb.com/business-directory/company-profiles.spinalgraft_technologies_llc.66d66921d4069df716362da716cbb569.html,-,Memphis,Tennessee,38118,United States,35.133502,-89.966876,"Memphis, Shelby County, West Tennessee, Tennessee, United States"
212,Eversight,-,https://www.eversightvision.org/,-,Middletown,Connecticut,6457,United States,41.562318,-72.650906,"Middletown, Middlesex County, Connecticut, United States"
213,High Desert Medical Solutions,-,https://www.linkedin.com/company/high-desert-medical-solutions,-,Albuquerque,New Mexico,87102,United States,35.084103,-106.650985,"Albuquerque, Bernalillo County, New Mexico, United States"
214,Garcia Laboratories LLC,-,https://www.linkedin.com/company/garcia-laboratories-llc,-,Albuquerque,New Mexico,87110,United States,35.084103,-106.650985,"Albuquerque, Bernalillo County, New Mexico, United States"
215,"Team Spine, Inc.",-,https://www.dnb.com/business-directory/company-profiles.team_spine_inc.ca853031fe1ab46e2fb4631e9455702d.html,-,Waukesha,Wisconsin,53188,United States,43.011678,-88.231481,"Waukesha, Waukesha County, Wisconsin, United States"
216,"Biovex, Inc.",-,https://www.dnb.com/business-directory/company-profiles.biovex_inc.b74a48fc39a6dc0b6749bc9a14690295.html,-,Woburn,Massachusetts,1801,United States,42.479262,-71.152277,"Woburn, Middlesex County, Massachusetts, 01801, United States"
217,"BioReference Health, LLC",-,https://www.corporationwiki.com/p/3cp22u/bioreference-health-llc,-,Elmwood Park,New Jersey,7407,United States,40.914049,-74.124471,"Elmwood Park, Bergen County, New Jersey, United States"
218,WuXi AppTec Inc.,-,https://www.wuxiapptec.com/about/,-,Saint Paul,Minnesota,55120,United States,44.949749,-93.093103,"Saint Paul, Ramsey County, Minnesota, United States"
219,Zimmer Biomet Atlanta,-,https://www.zimmerbiomet.com/en,-,Norcross,Georgia,30093,United States,33.941213,-84.213531,"Norcross, Gwinnett County, Georgia, 30071, United States"
220,ZimmerBiomet OrthoSolutions,-,https://www.zimmerbiomet.com/en,-,Lexington,Kentucky,40503,United States,38.046407,-84.497039,"Lexington, Fayette County, Kentucky, United States"
221,Univ of Chicago Med Center Advanced Cellular Therapeutics Facility,-,https://www.uchicagomedicine.org/cancer/types-treatments/cellular-therapy,-,Chicago,Illinois,60637,United States,41.875562,-87.624421,"Chicago, Cook County, Illinois, United States"
222,University Of Chicago,-,https://www.uchicago.edu/,-,Chicago,Illinois,60637,United States,41.791397,-87.600844,"The University of Chicago, 5801, South Ellis Avenue, Hyde Park, Chicago, Hyde Park Township, Cook County, Illinois, 60637, United States"
223,"Microvascular Tissue, Inc",-,https://www.mvtissues.com/,-,San Diego,California,92121,United States,32.71742,-117.162773,"San Diego, San Diego County, California, United States"
224,"Sports Tek Medical, Inc.",-,https://www.linkedin.com/company/sportstek-medical,-,Anaheim,California,92807,United States,33.834752,-117.911732,"Anaheim, Orange County, California, United States"
225,"Synergy Biologics, LLC",-,https://www.synergybiologics.com/,-,Tallahassee,Florida,32308,United States,30.438083,-84.280933,"Tallahassee, Leon County, Florida, United States"
226,CellRight Technologies LLC,-,https://www.tissueregenixus.com,-,Universal City,Texas,78148,United States,29.548007,-98.291123,"Universal City, Bexar County, Texas, 78148, United States"
227,Texas Tech University Health Sciences Center,-,https://www.ttuhsc.edu/,-,Lubbock,Texas,79415,United States,33.563521,-101.879336,"Lubbock, Lubbock County, Texas, United States"
228,Steris Laboratories,-,https://www.steris.com/,-,Brooklyn Park,Minnesota,55445,United States,45.100481,-93.344358,"Brooklyn Park, Hennepin County, Minnesota, United States"
229,Stability Biologics LLC,-,https://www.stabilitybio.com/,-,San Antonio,Texas,78232,United States,29.4246,-98.495141,"San Antonio, Bexar County, Texas, United States"
230,"Spineology, Inc.",-,https://www.spineology.com/,-,Saint Paul,Minnesota,55128,United States,44.949749,-93.093103,"Saint Paul, Ramsey County, Minnesota, United States"
231,Sartorius Stedim Biooutsource Limited,-,https://www.sartorius.com/en,-,Glasgow,-,-,United Kingdom,55.860982,-4.248879,"Glasgow, Glasgow City, Alba / Scotland, G2 9SA, United Kingdom"
232,"Snoasis Medical, LLC",-,https://www.snoasismedical.com/,-,Golden,Colorado,80401,United States,39.754635,-105.22058,"Golden, Jefferson County, Colorado, United States"
233,Cooper Institute,-,https://www.cooperinstitute.org/,-,Houston,Texas,77074,United States,29.758938,-95.367697,"Houston, Harris County, Texas, United States"
234,UTHealth Medical School The Evelyn H Griffin Stem Cell Thera,-,https://med.uth.edu/pediatricsurgery/research/research-centers-and-programs/translational-laboratories/facilities/core-facilities/cellular-therapy-core/,-,Houston,Texas,77054,United States,29.758938,-95.367697,"Houston, Harris County, Texas, United States"
235,Olympia Women's Health,-,https://olywomen.com/,-,Olympia,Washington,98502,United States,47.045102,-122.895008,"Olympia, Thurston County, Washington, United States"
236,HEMOGENYX LLC,-,https://hemogenyx.com/about,-,Brooklyn,New York,11226,United States,40.652601,-73.949721,"Brooklyn, Kings County, City of New York, New York, United States"
237,Univ of Ill Hosp & Hlth Sciences Stem Cell / Bone Marrow Processing Lab,-,https://hospital.uillinois.edu/primary-and-specialty-care/transplantation-program/blood-and-marrow-transplant-program,-,Chicago,Illinois,60612,United States,41.875562,-87.624421,"Chicago, Cook County, Illinois, United States"
238,"Regenerative Biologics, Inc.",-,https://regenerative-biologics.com/,-,Jacksonville,Florida,32210,United States,30.332184,-81.655651,"Jacksonville, Duval County, Florida, United States"
239,Puragraft LLC,-,https://puragraft.com/,-,Kingwood,Texas,77339,United States,30.920072,-95.253343,"Kingwood, Trinity County, Texas, United States"
240,"Quality Bioresources, Inc",-,https://qualbio.com/,-,Seguin,Texas,78155,United States,29.568841,-97.964727,"Seguin, Guadalupe County, Texas, United States"
241,Regenerative Biologics Inc,-,https://regenerative-biologics.com/,-,Panama City,Florida,32405,United States,30.160083,-85.654573,"Panama City, Bay County, Florida, United States"
242,Regenerative Biologics Inc.,-,https://regenerative-biologics.com/,-,Gainesville,Florida,32653,United States,29.651968,-82.324985,"Gainesville, Alachua County, Florida, United States"
243,"Regenerative Biologics, Inc.",-,https://regenerative-biologics.com/,-,Tallahassee,Florida,32309,United States,30.438083,-84.280933,"Tallahassee, Leon County, Florida, United States"
244,"AEGIS Spine, Inc.",-,https://aegisspine.com/,-,Englewood,Colorado,80112,United States,37.400401,-105.605949,"Englewood, Costilla County, Colorado, United States"
245,Allo Source,-,https://allosource.org/,-,Altoona,Iowa,50009,United States,41.643731,-93.469603,"Altoona, Polk County, Iowa, 50009, United States"
246,AlloSource,-,https://allosource.org/,-,Chicago,Illinois,60654,United States,41.875562,-87.624421,"Chicago, Cook County, Illinois, United States"
247,Fisher BioServices,-,http://www.fisherbioservices.com/,-,Rockville,Maryland,20850,United States,39.081798,-77.151684,"Rockville, Montgomery County, Maryland, United States"
248,"Osteobiologic Solutions, Inc.,",-,http://osteobiologicsolutions.com/,-,The Woodlands,Texas,77381,United States,30.173419,-95.504686,"The Woodlands, Montgomery County, Texas, United States"
249,"VGI Medical, LLC",-,http://vgimedical.com/,-,Largo,Florida,33773,United States,27.909467,-82.787324,"Largo, Pinellas County, Florida, United States"
250,Coriell Institue for Medical Research,-,https://coriell.org/,-,Camden,New Jersey,8103,United States,39.94484,-75.119891,"Camden, Camden County, New Jersey, United States"
251,"Crestview Pharma, LLC",-,https://crestviewpharmacyfla.com/,-,Aiken,South Carolina,29805,United States,33.572319,-81.618209,"Aiken County, South Carolina, United States"
252,Elite Spine LLC,-,https://elitespine.care/,-,Collegeville,Pennsylvania,19426,United States,40.18566,-75.451571,"Collegeville, Montgomery County, Pennsylvania, 19426, United States"
253,"Evologics, LLC",-,https://evologics.us/,-,San Antonio,Texas,78240,United States,29.4246,-98.495141,"San Antonio, Bexar County, Texas, United States"
254,"Axolotl Biologix, Inc.",-,https://axobio.com/,-,Phoenix,Arizona,85027,United States,33.448437,-112.074141,"Phoenix, Maricopa County, Arizona, United States"
255,"Alon Medical Technology, LLC",-,https://alonmedical.com/,-,Lafayette,Louisiana,70503,United States,30.204326,-92.029881,"Lafayette, Lafayette Parish, Louisiana, United States"
256,"Alpha Tissue, Inc",-,https://alphatissue.net/,-,Stone Mountain,Georgia,30083,United States,33.806217,-84.145751,"Stone Mountain, DeKalb County, Georgia, 30087, United States"
257,AnMed Health,-,https://anmedhealth.org/,-,Anderson,South Carolina,29621,United States,34.511766,-82.646412,"AnMed Health Medical Center, 800, North Fant Street, Allen Hills, Anderson, Anderson County, South Carolina, 29621, United States"
258,Applied Biologics LLC,-,https://appliedbiologics.com/,-,Scottsdale,Arizona,85258,United States,33.494219,-111.926018,"Scottsdale, Maricopa County, Arizona, United States"
259,"Resilience, LLC",-,https://phoenixresilience.com/,-,Phoenix,Arizona,85027,United States,33.448437,-112.074141,"Phoenix, Maricopa County, Arizona, United States"
260,"Elite Biologics, LLC",-,https://www.bioagilytix.com/services/our-cro-lab-capabilities/?loc_physical_ms=87542&matchtype=p&campaignid=395392887&device=c&adposition=&keyword=biologics+services&kw=biologics+services&cpn=395392887&msclkid=21097d3f6c3b1ca794fc1fcec3039265,-,Leawood,Kansas,66211,United States,38.970653,-94.615011,"Leawood, Johnson County, Kansas, United States"
261,"Ten20 Medical Distribution, LLC",-,https://ten20medical.com/,-,Dallas,Texas,75244,United States,32.776272,-96.796856,"Dallas, Dallas County, Texas, United States"
262,"IntegoGen, LLC",-,https://www.aatb.org/integogen-llc,-,Tallahassee,Florida,32308,United States,30.438083,-84.280933,"Tallahassee, Leon County, Florida, United States"
263,Center For Cell & Gene Therapy,-,https://www.bcm.edu/academic-centers/cell-and-gene-therapy,-,Houston,Texas,77030,United States,29.758938,-95.367697,"Houston, Harris County, Texas, United States"
264,Banner Desert Med Center And Cardon Children's Med Center,-,https://www.bannerhealth.com,-,Mesa,Arizona,85202,United States,33.415112,-111.831479,"Mesa, Maricopa County, Arizona, United States"
265,AxoGen Corporation,-,https://www.axogeninc.com/,-,Dayton,Ohio,45402,United States,39.758948,-84.191607,"Dayton, Montgomery County, Ohio, United States"
266,"Cade Medical, Inc.",-,https://www.cademed.com,-,Temecula,California,92590,United States,33.494635,-117.147366,"Temecula, Riverside County, California, United States"
267,"Sterigenics US, LLC",-,https://sterigenics.com/,-,Charlotte,North Carolina,28278,United States,35.227209,-80.843083,"Charlotte, Mecklenburg County, North Carolina, United States"
268,"StemImmune, Inc",-,https://stem-immune.com/,-,San Diego,California,92122,United States,32.71742,-117.162773,"San Diego, San Diego County, California, United States"
269,Cardinal Health dba Specialty Pharmaceutical Services,-,https://www.cardinalhealth.com,-,La Vergne,Tennessee,37086,United States,36.015618,-86.581939,"La Vergne, Rutherford County, Tennessee, United States"
270,Sterigenics U.S. LLC.,-,https://sterigenics.com/,-,Corona,California,92878,United States,33.875295,-117.566445,"Corona, Riverside County, California, United States"
271,Biovex Ltd,-,https://www.bionity.com/en/companies/12432/biovex-ltd.html,-,Abingdon,-,-,United Kingdom,51.671484,-1.277972,"Abingdon, Vale of White Horse, Oxfordshire, England, OX14 3UJ, United Kingdom"
272,"Sterigenics US, LLC",-,https://sterigenics.com/,-,Hayward,California,94545,United States,37.668821,-122.080796,"Hayward, Alameda County, California, United States"
273,"Zimmer Spine, Inc.",-,https://www.zimmerbiomet.com/en,-,Memphis,Tennessee,38118,United States,35.133502,-89.966876,"Memphis, Shelby County, West Tennessee, Tennessee, United States"
274,Viracor-IBT Laboratories,-,https://www.eurofins-viracor.com/clinical/news-and-events/posts/2013/november/viracor-ibt-laboratories-acquires-assets-of-the-national-institute-of-transplantation/,-,Los Angeles,California,90057,United States,34.053691,-118.242766,"Los Angeles, Los Angeles County, California, United States"
275,"Zimmer Solutions, Inc",-,https://www.zimmerbiomet.com/en,-,Theodore,Alabama,36582,United States,30.547295,-88.180204,"Theodore, Mobile County, Alabama, 36582, United States"
276,Office of Chief Medical Examiner Decomposition Room,-,https://www1.nyc.gov/site/ocme/index.page,-,Smithtown,New York,11787,United States,40.855931,-73.200669,"Smithtown, Town of Smithtown, Suffolk County, New York, 11787, United States"
277,XTANT Medical,-,https://xtantmedical.com/,-,Belgrade,Montana,59714,United States,45.773279,-111.184535,"Belgrade, Gallatin County, Montana, 59714, United States"
278,AXIS Spine LLC,-,https://www.axisspinecenter.com/,-,Westlake Village,California,91361,United States,34.146023,-118.806179,"Westlake Village, Los Angeles County, California, United States"
279,Eversight,-,https://www.eversightvision.org/,-,Clark,New Jersey,7066,United States,40.623399,-74.314828,"Clark, Union County, New Jersey, United States"
280,Axogen Corporation,-,https://www.axogeninc.com,-,Burleson,Texas,76028,United States,30.476488,-96.635349,"Burleson County, Texas, United States"
281,"Tritium BioSciences, LLC",-,https://www.bizapedia.com/us/tritium-biosciences-llc.html,-,Cordova,Tennessee,38018,United States,35.155645,-89.776196,"Cordova, Memphis, Shelby County, West Tennessee, Tennessee, 38018, United States"
282,"Max Spine, LLC",-,https://www.corporationwiki.com/Texas/El-Paso/max-spine-llc/37765531.aspx,-,El Paso,Texas,79902,United States,31.786562,-106.441207,"El Paso, El Paso County, Texas, United States"
283,Interventional Spine Inc,-,http://interventionalspine.net/,-,Irvine,California,92618,United States,33.685697,-117.825982,"Irvine, Orange County, California, United States"
284,Fisher Bioservices,-,http://www.fisherbioservices.com/,-,Rockville,Maryland,20850,United States,39.081798,-77.151684,"Rockville, Montgomery County, Maryland, United States"
285,Baptist Health Lexington,-,https://www.baptisthealth.com/lexington/,-,Lexington,Kentucky,40503,United States,38.0187,-84.512354,"Baptist Health, 1740, Nicholasville Road, WGPL, Lexington, Fayette County, Kentucky, 40503, United States"
286,"Affirmative Solutions, LLC",-,https://affirmative-solutions.com/,-,Woodstock,Georgia,30188,United States,34.101411,-84.519219,"Woodstock, Cherokee County, Georgia, United States"
287,Dendreon Pharmaceuticals LLC,-,https://www.dendreon.com/,-,Seal Beach,California,90740,United States,33.742397,-118.105593,"Seal Beach, Orange County, California, United States"
288,"West Virginia Biologics, LLC",-,http://www.wvbiological.com/,-,Huntington,West Virginia,25701,United States,38.41925,-82.445154,"Huntington, Cabell County, West Virginia, United States"
289,New York Firefighters Skin Bank New York Presbyterian Hosp,-,https://www.nyp.org/burn-center/burn-center-specialized-programs,-,New York,New York,10065,United States,36.102279,-115.176022,"New York New York, Paradise, Clark County, Nevada, 89158, United States"
290,"Nuvasive PR, Inc.",-,https://www.nuvasive.com/,-,Guaynabo,Puerto Rico,968,United States,18.358149,-66.111697,"Guaynabo, Puerto Rico, United States"
291,Next Step Medical Co Inc,-,"https://npino.com/medical-supplies/1669510327-next-step-medical,-co./",-,Rio Piedras,Puerto Rico,925,United States,18.397423,-66.050111,"Río Piedras, Puerto Rico, 00925, United States"
292,"Sentry Biopharma Services, Inc.",-,https://sentrybps.com/,-,Indianapolis,Indiana,46241,United States,39.768333,-86.15835,"Indianapolis, Marion County, Indiana, United States"
293,Stanford Clinical Laboratory at Hillview,-,https://stanfordlab.com/clinical-pathology.html,-,Palo Alto,California,94304,United States,37.444329,-122.159847,"Palo Alto, Santa Clara County, California, United States"
294,Mayo Clinic Florida,-,https://www.mayoclinic.org/patient-visitor-guide/florida,-,Jacksonville,Florida,32224,United States,30.260466,-81.444794,"Mayo Clinic Jacksonville Campus, 4500, San Pablo Parkway, Jacksonville, Duval County, Florida, 32224, United States"
295,Medtronic,-,https://www.medtronic.com/us-en/index.html,-,Minneapolis,Minnesota,55416,United States,44.974102,-93.259289,"Medtronic Plaza, Minneapolis, Hennepin County, Minnesota, United States"
296,Medtronic Inc,-,https://www.medtronic.com/us-en/index.html,-,Tempe,Arizona,85281,United States,33.425506,-111.940009,"Tempe, Maricopa County, Arizona, United States"
297,Sterigenics U.S. LLC,-,https://sterigenics.com/,-,Mulberry,Florida,33860,United States,27.895304,-81.973417,"Mulberry, Polk County, Florida, United States"
298,"Osteomed, LLC",-,https://www.linkedin.com/company/osteomed/,-,Addison,Texas,75001,United States,32.960478,-96.830067,"Addison, Dallas County, Texas, 75001, United States"
299,"University Of Chicago Medical Ctr, Clinical Microbiology",-,https://microbiology.uchicago.edu/,-,Chicago,Illinois,60637,United States,41.875562,-87.624421,"Chicago, Cook County, Illinois, United States"
300,UW Medicine - University of Washington,-,https://www.uwmedicine.org/,-,Seattle,Washington,98195,United States,47.603832,-122.330062,"Seattle, King County, Washington, United States"
301,University of Washington Med Center - Roosevelt,-,https://www.uwmedicine.org/locations/general-internal-medicine-center-uwmc-roosevelt,-,Seattle,Washington,98105,United States,47.603832,-122.330062,"Seattle, King County, Washington, United States"
302,Vericel Corporation,-,https://www.vcel.com/,-,Cambridge,Massachusetts,2139,United States,42.3751,-71.105616,"Cambridge, Middlesex County, Massachusetts, United States"
303,AMG MED GROUP Corp,-,https://www.amgmedicalgroup.com/,-,Davie,Florida,33324,United States,26.062866,-80.233104,"Davie, Broward County, Florida, United States"
304,NIH Clinical Center,-,https://clinicalcenter.nih.gov/,-,Bethesda,Maryland,20892,United States,39.001645,-77.104542,"NIH Clinical Center, 10, Center Drive, Alta Vista, Maplewood, Bethesda, Montgomery County, Maryland, 20892, United States"
305,Impact Ortho Inc,-,https://www.impact-ortho.com/about-us/our-team/,-,San Diego,California,92121,United States,32.71742,-117.162773,"San Diego, San Diego County, California, United States"
306,Center For Womens's Medicine,-,https://womanshospital.com/,-,Houston,Texas,77079,United States,29.758938,-95.367697,"Houston, Harris County, Texas, United States"
307,"Integra Lifescience, LLC",-,https://www.integralife.com/,-,Fenton,Missouri,63026,United States,38.513199,-90.440058,"Fenton, Saint Louis County, Missouri, 63029, United States"
308,"Sunstar Americas, Inc.",-,https://www.sunstar.com/,-,Schaumburg,Illinois,60195,United States,42.033361,-88.083406,"Schaumburg, Schaumburg Township, Cook County, Illinois, United States"
309,"IntegraMed Medical Connecticut, LLC",-,https://imedcenter.com/,-,Trumbull,Connecticut,6611,United States,41.242874,-73.200669,"Trumbull, Fairfield County, Connecticut, 06611, United States"
310,TelaGen LLC,-,https://www.telagenllc.com/,-,Pensacola,Florida,32504,United States,30.421309,-87.216915,"Pensacola, Escambia County, Florida, United States"
311,"InterMountain Medical, Inc",-,https://intermountainhealthcare.org/,-,Lakewood,Colorado,80215,United States,39.708574,-105.084669,"Lakewood, Jefferson County, Colorado, United States"
312,"Vivorte, Inc.",-,https://vivorte.com/about/,-,Louisville,Kentucky,40204,United States,38.254238,-85.759407,"Louisville, Jefferson County, Kentucky, United States"
313,Stanford Healthcare ValleyCare,-,https://valleycare.com/,-,Pleasanton,California,94588,United States,37.662431,-121.874679,"Pleasanton, Alameda County, California, United States"
314,"Department of Air Force, 59th Medical Wing/SGVLB",-,https://www.59mdw.af.mil/,-,Lackland Afb,Texas,78236,United States,29.386286,-98.6009,"Lackland Air Force Base, Bexar County, Texas, United States"
315,HCA Health Services of Tennessee dba TriStar Centennial,-,https://tristarhealth.com/locations/tristar-centennial/,-,Nashville,Tennessee,37203,United States,36.162277,-86.774298,"Nashville-Davidson, Davidson County, Tennessee, United States"
316,"Regenerative Biologics, Inc.",-,https://regenerative-biologics.com/,-,Melbourne,Florida,32935,United States,28.106471,-80.637151,"Melbourne, Brevard County, Florida, United States"
317,Vivex Biomedical Inc,-,https://vivex.com/,-,Marietta,Georgia,30062,United States,33.952847,-84.549615,"Marietta, Cobb County, Georgia, United States"
318,"Alpha Med Distributors, LLC",-,https://alphamedicalllc.com/,-,Frisco,Texas,75034,United States,33.150674,-96.823612,"Frisco, Collin County, Texas, United States"
319,"Amniox Medical, Inc",-,https://biotissue.com/,-,Atlanta,Georgia,30339,United States,33.748992,-84.390264,"Atlanta, Fulton County, Georgia, United States"
320,"Artivion, Inc",-,https://artivion.com/,-,Kennesaw,Georgia,30144,United States,34.023434,-84.61549,"Kennesaw, Cobb County, Georgia, United States"
321,US Stem Cell Inc,-,http://us-stemcell.com/,-,Sunrise,Florida,33325,United States,26.166689,-80.278757,"Sunrise, Broward County, Florida, United States"
322,"Fibrocell Technologies, Inc.",-,http://www.fibrocell.com/technology/index.html,-,Exton,Pennsylvania,19341,United States,40.029859,-75.628978,"Exton, West Whiteland Township, Chester County, Pennsylvania, 19341, United States"
323,Tutogen Medical GmbH,-,http://www.tutogen.de,-,Neunkirchen a. Brand,-,-,Germany,49.607197,11.133596,"RTI Surgical Tutogen Medical GmbH, 6, Industriestraße, Neunkirchen a.Brand, Landkreis Forchheim, Bayern, 91077, Deutschland"
324,Liventa Bioscience Inc.,-,http://www.liventabioscience.com/,-,Conshohocken,Pennsylvania,19428,United States,40.079277,-75.301571,"Conshohocken, Montgomery County, Pennsylvania, 19428, United States"
325,"Hausten Healthcare, LLC",-,http://www.hausten-h.com/english/,-,Honolulu,Hawaii,96826,United States,21.304547,-157.855676,"Honolulu, Honolulu County, Hawaii, United States"
326,"ArtiMed Solutions, LLC.",-,https://opencorporates.com/companies/us_tx/0801748364,-,Dallas,Texas,75218,United States,32.776272,-96.796856,"Dallas, Dallas County, Texas, United States"
327,"Medalliance, Inc",-,https://medalliance.com/,-,Glenside,Pennsylvania,19038,United States,40.102333,-75.152119,"Glenside, Abington Township, Montgomery County, Pennsylvania, 19038, United States"
328,"Sunrise Medical Laboratories, Inc.",-,https://www.sunriselab.com/,-,Hicksville,New York,11801,United States,40.768193,-73.523821,"Hicksville, Town of Oyster Bay, Nassau County, New York, 11801, United States"
329,VA Tennessee Valley Healthcare System - Nashville Campus,-,https://www.va.gov/tennessee-valley-health-care/,-,Nashville,Tennessee,37212,United States,36.162277,-86.774298,"Nashville-Davidson, Davidson County, Tennessee, United States"
330,"Nelson Labs Fairfield, Inc.",-,https://www.nelsonlabs.com/locations/fairfield-new-jersey-usa/,-,Fairfield,New Jersey,7004,United States,40.88371,-74.305982,"Fairfield, Essex County, New Jersey, 07004, United States"
331,"South Bend Medical Foundation, Inc.",-,https://www.sbmf.org/,-,South Bend,Indiana,46601,United States,41.683381,-86.250007,"South Bend, Saint Joseph County, Indiana, United States"
332,Zimmer Etex,-,https://www.zimmerbiomet.com/en,-,Sanford,Florida,32771,United States,28.811735,-81.268022,"Sanford, Seminole County, Florida, United States"
333,Alliqua Biomedical,-,https://www.biospace.com/article/releases/celularity-scoops-up-alliqua-biomedical-in-29m-deal/,-,Langhorne,Pennsylvania,19047,United States,40.174554,-74.922667,"Langhorne, Bucks County, Pennsylvania, United States"
334,Charles River Laboratories Inc,-,https://www.criver.com/,-,Memphis,Tennessee,38118,United States,35.133502,-89.966876,"Memphis, Shelby County, West Tennessee, Tennessee, United States"
335,Allomed Biologics,-,https://www.allomed.at/en/about-us/,-,Tucson,Arizona,85712,United States,32.222876,-110.974848,"Tucson, Pima County, Arizona, United States"
336,"Argon Medical USA, LLC",-,https://www.argonmedical.com/,-,Marshfield,Wisconsin,54449,United States,44.668852,-90.171799,"Marshfield, Wood County, Wisconsin, 54449, United States"
337,MayoClinic,-,https://www.mayoclinic.org/patient-visitor-guide/florida,-,Maple Grove,Minnesota,55369,United States,45.098498,-93.441922,"Maple Grove, Hennepin County, Minnesota, United States"
338,Meridian LifeSciences LLC,-,https://www.meridianbioscience.com/lifescience/about-life-science/,-,San Antonio,Texas,78232,United States,29.4246,-98.495141,"San Antonio, Bexar County, Texas, United States"
339,Medtronic Inc,-,https://www.medtronic.com/us-en/index.html,-,West Des Moines,Iowa,50266,United States,41.564448,-93.759406,"West Des Moines, Polk County, Iowa, United States"
340,Inova Health Care Services,-,https://www.inova.org/,-,Sterling,Virginia,20166,United States,39.00381,-77.408328,"Sterling, Loudoun County, Virginia, 20164, United States"
